{
    "name": "Nepal",
    "code": "NP",
    "topCities": [
        { "name": "Taplejung (ताप्लेजुङ)", "lat": 27.3333, "lon": 87.6667, "formatted": "Taplejung, Nepal", "province": "Koshi Province" },
        { "name": "Panchthar (फिदिम)", "lat": 27.1667, "lon": 87.7500, "formatted": "Panchthar, Nepal", "province": "Koshi Province" },
        { "name": "Ilam (इलाम)", "lat": 26.9167, "lon": 87.9167, "formatted": "Ilam, Nepal", "province": "Koshi Province" },
        { "name": "Jhapa (चन्द्रगढी)", "lat": 26.5833, "lon": 87.9167, "formatted": "Jhapa, Nepal", "province": "Koshi Province" },
        { "name": "Sankhuwasabha (खाँदबारी)", "lat": 27.5000, "lon": 87.1667, "formatted": "Sankhuwasabha, Nepal", "province": "Koshi Province" },
        { "name": "Bhojpur (भोजपुर)", "lat": 27.1667, "lon": 87.0833, "formatted": "Bhojpur, Nepal", "province": "Koshi Province" },
        { "name": "Terhathum (म्याङलुङ)", "lat": 27.0833, "lon": 87.5000, "formatted": "Terhathum, Nepal", "province": "Koshi Province" },
        { "name": "Dhankuta (धनकुटा)", "lat": 26.9167, "lon": 87.3333, "formatted": "Dhankuta, Nepal", "province": "Koshi Province" },
        { "name": "Sunsari (इनरुवा)", "lat": 26.5833, "lon": 87.1667, "formatted": "Sunsari, Nepal", "province": "Koshi Province" },
        { "name": "Morang (विराटनगर)", "lat": 26.5000, "lon": 87.3333, "formatted": "Morang, Nepal", "province": "Koshi Province" },
        { "name": "Siraha (सिरहा)", "lat": 26.6667, "lon": 86.1667, "formatted": "Siraha, Nepal", "province": "Madhesh Province" },
        { "name": "Dhanusha (जनकपुरधाम)", "lat": 26.7500, "lon": 86.0000, "formatted": "Dhanusha, Nepal", "province": "Madhesh Province" },
        { "name": "Saptari (राजविराज)", "lat": 26.5833, "lon": 86.7500, "formatted": "Saptari, Nepal", "province": "Madhesh Province" },
        { "name": "Sarlahi (मलङ्गवा)", "lat": 26.8333, "lon": 85.5833, "formatted": "Sarlahi, Nepal", "province": "Madhesh Province" },
        { "name": "Rautahat (गौर)", "lat": 26.7500, "lon": 85.2500, "formatted": "Rautahat, Nepal", "province": "Madhesh Province" },
        { "name": "Bara (कलैया)", "lat": 27.0000, "lon": 85.0000, "formatted": "Bara, Nepal", "province": "Madhesh Province" },
        { "name": "Parsa (वीरगञ्ज)", "lat": 27.0000, "lon": 84.8333, "formatted": "Parsa, Nepal", "province": "Madhesh Province" },
        { "name": "Dolakha (चरिकोट)", "lat": 27.6667, "lon": 86.0833, "formatted": "Dolakha, Nepal", "province": "Bagmati Province" },
        { "name": "Ramechhap (मन्थली)", "lat": 27.3333, "lon": 86.0833, "formatted": "Ramechhap, Nepal", "province": "Bagmati Province" },
        { "name": "Sindhuli (सिन्धुलीमाडी)", "lat": 27.2500, "lon": 85.9167, "formatted": "Sindhuli, Nepal", "province": "Bagmati Province" },
        { "name": "Kavrepalanchok (धुलिखेल)", "lat": 27.5833, "lon": 85.5833, "formatted": "Kavrepalanchok, Nepal", "province": "Bagmati Province" },
        { "name": "Bhaktapur (भक्तपुर)", "lat": 27.6667, "lon": 85.4167, "formatted": "Bhaktapur, Nepal", "province": "Bagmati Province" },
        { "name": "Kathmandu (काठमाडौँ)", "lat": 27.6667, "lon": 85.3333, "formatted": "Kathmandu, Nepal", "province": "Bagmati Province" },
        { "name": "Lalitpur (ललितपुर)", "lat": 27.6667, "lon": 85.3333, "formatted": "Lalitpur, Nepal", "province": "Bagmati Province" },
        { "name": "Ramechhap (मन्थली)", "lat": 27.3333, "lon": 86.0833, "formatted": "Ramechhap, Nepal", "province": "Bagmati Province" },
        { "name": "Makwanpur (हेटौडा)", "lat": 27.4167, "lon": 85.0000, "formatted": "Makwanpur, Nepal", "province": "Bagmati Province" },
        { "name": "Sindhupalchok (चौतारा)", "lat": 27.7500, "lon": 85.8333, "formatted": "Sindhupalchok, Nepal", "province": "Bagmati Province" },
        { "name": "Chitwan (भरतपुर)", "lat": 27.6667, "lon": 84.4167, "formatted": "Chitwan, Nepal", "province": "Bagmati Province" },
        { "name": "Gorkha (गोरखा)", "lat": 28.0000, "lon": 84.6667, "formatted": "Gorkha, Nepal", "province": "Gandaki Province" },
        { "name": "Lamjung (बेसीसहर)", "lat": 28.2500, "lon": 84.4167, "formatted": "Lamjung, Nepal", "province": "Gandaki Province" },
        { "name": "Tanahun (दमौली)", "lat": 28.0000, "lon": 84.2500, "formatted": "Tanahun, Nepal", "province": "Gandaki Province" },
        { "name": "Manang (चामे)", "lat": 28.6667, "lon": 84.0000, "formatted": "Manang, Nepal", "province": "Gandaki Province" },
        { "name": "Kaski (पोखरा)", "lat": 28.2500, "lon": 84.0000, "formatted": "Kaski, Nepal", "province": "Gandaki Province" },
        { "name": "Syangja (स्याङ्जा)", "lat": 28.0833, "lon": 83.8333, "formatted": "Syangja, Nepal", "province": "Gandaki Province" },
        { "name": "Parbat (कुश्मा)", "lat": 28.2500, "lon": 83.7500, "formatted": "Parbat, Nepal", "province": "Gandaki Province" },
        { "name": "Baglung (बागलुङ)", "lat": 28.2500, "lon": 83.5833, "formatted": "Baglung, Nepal", "province": "Gandaki Province" },
        { "name": "Palpa (तानसेन)", "lat": 27.8333, "lon": 83.5833, "formatted": "Palpa, Nepal", "province": "Lumbini Province" },
        { "name": "Rupandehi (भैरहवा)", "lat": 27.5000, "lon": 83.4167, "formatted": "Rupandehi, Nepal", "province": "Lumbini Province" },
        { "name": "Gulmi (तम्घास)", "lat": 28.0833, "lon": 83.2500, "formatted": "Gulmi, Nepal", "province": "Lumbini Province" },
        { "name": "Arghakhanchi (सन्धिखर्क)", "lat": 27.9167, "lon": 83.2500, "formatted": "Arghakhanchi, Nepal", "province": "Lumbini Province" },
        { "name": "Kapilvastu (तौलिहवा)", "lat": 27.5833, "lon": 83.0000, "formatted": "Kapilvastu, Nepal", "province": "Lumbini Province" },
        { "name": "Dang (घोराही)", "lat": 27.9167, "lon": 82.5000, "formatted": "Dang, Nepal", "province": "Lumbini Province" },
        { "name": "Pyuthan (प्युठान)", "lat": 28.0833, "lon": 82.8333, "formatted": "Pyuthan, Nepal", "province": "Lumbini Province" },
        { "name": "Rolpa (लिवाङ)", "lat": 28.3333, "lon": 82.6667, "formatted": "Rolpa, Nepal", "province": "Lumbini Province" },
        { "name": "Rukum West (मुसीकोट)", "lat": 28.5833, "lon": 82.5833, "formatted": "Rukum West, Nepal", "province": "Lumbini Province" },
        { "name": "Banke (नेपालगञ्ज)", "lat": 28.0000, "lon": 81.6667, "formatted": "Banke, Nepal", "province": "Lumbini Province" },
        { "name": "Bardiya (गुलरिया)", "lat": 28.2500, "lon": 81.3333, "formatted": "Bardiya, Nepal", "province": "Lumbini Province" },
        { "name": "Dolpa (दुनै)", "lat": 29.0000, "lon": 83.0833, "formatted": "Dolpa, Nepal", "province": "Karnali Province" },
        { "name": "Mugu (गमगढी)", "lat": 29.5833, "lon": 82.1667, "formatted": "Mugu, Nepal", "province": "Karnali Province" },
        { "name": "Jajarkot (जाजरकोट)", "lat": 28.8333, "lon": 82.1667, "formatted": "Jajarkot, Nepal", "province": "Karnali Province" },
        { "name": "Dailekh (नारायण)", "lat": 28.8333, "lon": 81.7500, "formatted": "Dailekh, Nepal", "province": "Karnali Province" },
        { "name": "Surkhet (वीरेन्द्रनगर)", "lat": 28.5833, "lon": 81.5833, "formatted": "Surkhet, Nepal", "province": "Karnali Province" },
        { "name": "Salyan (सल्यान)", "lat": 28.3333, "lon": 82.1667, "formatted": "Salyan, Nepal", "province": "Karnali Province" },
        { "name": "Rukum East (रुकुमकोट)", "lat": 28.5833, "lon": 82.5833, "formatted": "Rukum East, Nepal", "province": "Karnali Province" },
        { "name": "Jumla (जुम्ला)", "lat": 29.2500, "lon": 82.1667, "formatted": "Jumla, Nepal", "province": "Karnali Province" },
        { "name": "Kalikot (मान्म)", "lat": 29.1667, "lon": 81.6667, "formatted": "Kalikot, Nepal", "province": "Karnali Province" },
        { "name": "Humla (सिमिकोट)", "lat": 30.0000, "lon": 81.8333, "formatted": "Humla, Nepal", "province": "Karnali Province" },
        { "name": "Bajhang (चैनपुर)", "lat": 29.5000, "lon": 81.2500, "formatted": "Bajhang, Nepal", "province": "Sudurpashchim Province" },
        { "name": "Bajura (मार्तडी)", "lat": 29.4167, "lon": 81.5000, "formatted": "Bajura, Nepal", "province": "Sudurpashchim Province" },
        { "name": "Achham (मंगलसेन)", "lat": 29.0833, "lon": 81.3333, "formatted": "Achham, Nepal", "province": "Sudurpashchim Province" },
        { "name": "Doti (सिलगढी)", "lat": 29.0000, "lon": 80.9167, "formatted": "Doti, Nepal", "province": "Sudurpashchim Province" },
        { "name": "Dadeldhura (डडेलधुरा)", "lat": 29.2500, "lon": 80.5833, "formatted": "Dadeldhura, Nepal", "province": "Sudurpashchim Province" },
        { "name": "Kailali (धनगढी)", "lat": 28.6667, "lon": 80.8333, "formatted": "Kailali, Nepal", "province": "Sudurpashchim Province" },
        { "name": "Kanchanpur (भीमदत्त)", "lat": 28.9167, "lon": 80.1667, "formatted": "Kanchanpur, Nepal", "province": "Sudurpashchim Province" },
        { "name": "Rasuwa (धुन्चे)", "lat": 28.0833, "lon": 85.3333, "formatted": "Rasuwa, Nepal", "province": "Bagmati Province" },
        { "name": "Nuwakot (विदुर)", "lat": 27.9167, "lon": 85.1667, "formatted": "Nuwakot, Nepal", "province": "Bagmati Province" },
        { "name": "Dhading (धादिङबेसी)", "lat": 27.9167, "lon": 84.9167, "formatted": "Dhading, Nepal", "province": "Bagmati Province" },
        { "name": "Myagdi (बेनी)", "lat": 28.3333, "lon": 83.5833, "formatted": "Myagdi, Nepal", "province": "Gandaki Province" },
        { "name": "Nawalparasi West (रामग्राम)", "lat": 27.5000, "lon": 83.6667, "formatted": "Nawalparasi West, Nepal", "province": "Lumbini Province" },
        { "name": "Nawalparasi East (कावासोती)", "lat": 27.6667, "lon": 84.0833, "formatted": "Nawalparasi East, Nepal", "province": "Gandaki Province" },
        { "name": "Rukum East (रुकुमकोट)", "lat": 28.5833, "lon": 82.5833, "formatted": "Rukum East, Nepal", "province": "Karnali Province" },
        { "name": "Rukum West (मुसीकोट)", "lat": 28.5833, "lon": 82.5833, "formatted": "Rukum West, Nepal", "province": "Lumbini Province" },
        { "name": "Bardiya (गुलरिया)", "lat": 28.2500, "lon": 81.3333, "formatted": "Bardiya, Nepal", "province": "Lumbini Province" },
        { "name": "Banke (नेपालगञ्ज)", "lat": 28.0000, "lon": 81.6667, "formatted": "Banke, Nepal", "province": "Lumbini Province" },
        { "name": "Bajhang (चैनपुर)", "lat": 29.5000, "lon": 81.2500, "formatted": "Bajhang, Nepal", "province": "Sudurpashchim Province" },
        { "name": "Bajura (मार्तडी)", "lat": 29.4167, "lon": 81.5000, "formatted": "Bajura, Nepal", "province": "Sudurpashchim Province" },
        { "name": "Achham (मंगलसेन)", "lat": 29.0833, "lon": 81.3333, "formatted": "Achham, Nepal", "province": "Sudurpashchim Province" }
    ]
}
